{
  "data": [
    {"address": "1001 S MAYFIELD AVE",                 "name": "Ravine Properties, LLC",                                   "long": -87.7716557532, "lat": 41.8690630014 },
    {"address": "1020 W 104TH PL",                     "name": "Z Financial Illinois G Properties, LLC",                   "long": -87.6484900593, "lat": 41.7042417152 },
    {"address": "1142 S FRANCISCO AVE",                "name": "Ahmad Hamdan",                                             "long": -87.698506124,  "lat": 41.8669812475 },
    {"address": "11432 S DR MARTIN LUTHER KING JR DR", "name": "Sal Williams",                                             "long": -87.6133298199, "lat": 41.6863139243 },
    {"address": "1301 S TRIPP AVE",                    "name": "ZJS Realty Inc.",                                          "long": -87.7310807897, "lat": 41.8641688817 },
    {"address": "1622 E 78TH ST",                      "name": "Hattie Evans",                                             "long": -87.5844993764, "lat": 41.7534292985 },
    {"address": "1624 S LOOMIS ST",                    "name": "Nestor Campoverde | Homero Coronel",                       "long": -87.6614948556, "lat": 41.8589400946 },
    {"address": "1755 N LINDER AVE",                   "name": "Bernice Conner",                                           "long": -87.7629765443, "lat": 41.9128603522 },
    {"address": "1859 N MOBILE AVE",                   "name": "Israel Ramos",                                             "long": -87.7820529322, "lat": 41.914534573 },
    {"address": "2021 N ST LOUIS AVE",                 "name": "Dolyva Properties, LLC",                                   "long": -87.713378288,  "lat": 41.9179579516 },
    {"address": "2154 N KOSTNER AVE",                  "name": "Yadira Estrada",                                           "long": -87.7365763346, "lat": 41.920539139 },
    {"address": "228 N LECLAIRE AVE",                  "name": "Tyree Beard",                                              "long": -87.7529503147, "lat": 41.8853391532 },
    {"address": "2821 N SPRINGFIELD AVE",              "name": "Guy Reyes",                                                "long": -87.7244073169, "lat": 41.9324813619 },
    {"address": "2842 W POLK ST",                      "name": "Mary Lang",                                                "long": -87.6977457645, "lat": 41.8711547209 },
    {"address": "2940 W AUGUSTA BLVD",                 "name": "Mosiac Development, LLC | Faith Cade",                     "long": -87.700935908,  "lat": 41.8993573088 },
    {"address": "3100 W 39TH PL",                      "name": "Jose Rodriguez",                                           "long": -87.702164011,  "lat": 41.8218435355 },
    {"address": "3636 W IOWA ST",                      "name": "Frank Duncan",                                             "long": -87.7177479662, "lat": 41.8973805991 },
    {"address": "3726 W GIDDINGS ST",                  "name": "Annabelle Bernales | Joe Marie | Teresita Marie",          "long": -87.7218252726, "lat": 41.9675078049 },
    {"address": "39 W 103RD PL",                       "name": "Dynasty Sales Consulting, Inc.",                           "long": -87.6249224086, "lat": 41.7061235065 },
    {"address": "4054 W LEXINGTON ST",                 "name": "Christopher Georgiades",                                   "long": -87.7275530498, "lat": 41.8719285966 },
    {"address": "5045 S MAY ST",                       "name": "Kenneth Gunn",                                             "long": -87.6537133873, "lat": 41.8019549233 },
    {"address": "5142 S ADA ST",                       "name": "CTMF LLC",                                                 "long": -87.6588190198, "lat": 41.8001203767 },
    {"address": "5402 W RICE ST",                      "name": "Raquel Reyes",                                             "long": -87.7608946752, "lat": 41.8959103073 },
    {"address": "5553 W CORTLAND ST",                  "name": "Antonio Torres | Antonio Gomez Torres",                    "long": -87.7652635252, "lat": 41.9142530961 },
    {"address": "5732 S THROOP ST",                    "name": "Robert Smith",                                             "long": -87.6573310928, "lat": 41.7894949433 },
    {"address": "5810 W 64TH PL",                      "name": "Tammy Sanfratello",                                        "long": -87.7670072734, "lat": 41.7753337451 },
    {"address": "6116 S ST LAWRENCE AVE",              "name": "Greenwood Investment Properties, LLC",                     "long": -87.6110179015, "lat": 41.7834230916 },
    {"address": "6223 S HONORE ST",                    "name": "Darrell Jones",                                            "long": -87.6701514542, "lat": 41.7804904216 },
    {"address": "6323 S TALMAN AVE",                   "name": "R & P Property Investment Properties, LLC",                "long": -87.6895717452, "lat": 41.7784325965 },
    {"address": "6339 S RACINE AVE",                   "name": "Angela White-Smith",                                       "long": -87.6543257015, "lat": 41.7784490286 },
    {"address": "6430 S YALE AVE",                     "name": "Hazel Farley | Samuel Farley",                             "long": -87.6318925469, "lat": 41.7772070354 },
    {"address": "6441 S EBERHART AVE",                 "name": "Ernestine Newman aka Ernestine Cochran",                   "long": -87.6129926213, "lat": 41.777248475 },
    {"address": "6447 S EVANS AVE",                    "name": "Regniva, LLC",                                             "long": -87.6069706679, "lat": 41.7771884097 },
    {"address": "7029 S ARTESIAN AVE",                 "name": "Daisy Johnson",                                            "long": -87.6843447581, "lat": 41.7656185984 },
    {"address": "7029 S MICHIGAN AVE",                 "name": "Jacqueline Andrews",                                       "long": -87.6215725868, "lat": 41.7665194801 },
    {"address": "7616 S MORGAN ST",                    "name": "Jerome Bailey",                                            "long": -87.6491660167, "lat": 41.7554854307 },
    {"address": "7753 S MORGAN ST",                    "name": "Bernice Wilkins | Wendell Wilkins, Sr. | Wendell Wilkins", "long": -87.6488006033, "lat": 41.7526524324 },
    {"address": "7834 S MARQUETTE AVE",                "name": "Elijah Mohammed",                                          "long": -87.5586071113, "lat": 41.7525994533 },
    {"address": "7920 S DOBSON AVE",                   "name": "Starveniece Avery-Bradley",                                "long": -87.5992513732, "lat": 41.7506906759 },
    {"address": "8101 S JEFFERY BLVD",                 "name": "Joel Reifer d/b/a Property Tax Professionals, LLC",        "long": -87.5757697848, "lat": 41.7478803456 },
    {"address": "905 E 92ND PL",                       "name": "Callie Cattenhead",                                        "long": -87.6020343169, "lat": 41.7265458893 },
    {"address": "9345 S MICHIGAN AVE",                 "name": "Izumi Graf",                                               "long": -87.6205075197, "lat": 41.7241001629 },
    {"address": "1264 S ST LOUIS AVE",                 "name": "DRS Land Acquisition, LLC",                                "long": -87.7130718725, "lat": 41.8643489392 },
    {"address": "1309 S HOMAN AVE",                    "name": "Sana Mehraban | 1309 S. Homan Land Trust",                 "long": -87.7103329695, "lat": 41.8642251123 },
    {"address": "3105 W 39TH PL",                      "name": "David Gonen",                                              "long": -87.7023042151, "lat": 41.8216210781 }
  ]
}
